{"type": "FeatureCollection", "features": [{"type": "Feature", "geometry": {"type": "Point", "coordinates": [-74.00597, 40.71427]}, "properties": {"title": "New York City", "id": "amp_place_id_28", "country_code": "US"}}, {"type": "Feature", "geometry": {"type": "Point", "coordinates": [16.37208, 48.20849]}, "properties": {"title": "Vienna", "id": "amp_place_id_1", "country_code": "AT"}}, {"type": "Feature", "geometry": {"type": "Point", "coordinates": [-98.5, 39.76]}, "properties": {"title": "U.S", "id": "amp_place_id_15", "country_code": "US"}}, {"type": "Feature", "geometry": {"type": "Point", "coordinates": [-2.69531, 54.75844]}, "properties": {"title": "UK", "id": "amp_place_id_93", "country_code": "GB"}}, {"type": "Feature", "geometry": {"type": "Point", "coordinates": [-2.69531, 54.75844]}, "properties": {"title": "UK", "id": "amp_place_id_93", "country_code": "GB"}}, {"type": "Feature", "geometry": {"type": "Point", "coordinates": [-1.25596, 51.75222]}, "properties": {"title": "Oxford", "id": "amp_place_id_46", "country_code": "GB"}}, {"type": "Feature", "geometry": {"type": "Point", "coordinates": [-71.05977, 42.35843]}, "properties": {"title": "Boston", "id": "amp_place_id_155", "country_code": "US"}}, {"type": "Feature", "geometry": {"type": "Point", "coordinates": [-74.00597, 40.71427]}, "properties": {"title": "New York City", "id": "amp_place_id_28", "country_code": "US"}}, {"type": "Feature", "geometry": {"type": "Point", "coordinates": [16.37208, 48.20849]}, "properties": {"title": "Vienna", "id": "amp_place_id_1", "country_code": "AT"}}, {"type": "Feature", "geometry": {"type": "Point", "coordinates": [16.37208, 48.20849]}, "properties": {"title": "Vienna", "id": "amp_place_id_1", "country_code": "AT"}}, {"type": "Feature", "geometry": {"type": "Point", "coordinates": [16.37208, 48.20849]}, "properties": {"title": "Vienna", "id": "amp_place_id_1", "country_code": "AT"}}, {"type": "Feature", "geometry": {"type": "Point", "coordinates": [-98.5, 39.76]}, "properties": {"title": "U.S", "id": "amp_place_id_15", "country_code": "US"}}, {"type": "Feature", "geometry": {"type": "Point", "coordinates": [-0.12574, 51.50853]}, "properties": {"title": "London", "id": "amp_place_id_56", "country_code": "GB"}}, {"type": "Feature", "geometry": {"type": "Point", "coordinates": [16.37208, 48.20849]}, "properties": {"title": "Vienna", "id": "amp_place_id_1", "country_code": "AT"}}, {"type": "Feature", "geometry": {"type": "Point", "coordinates": [-74.00597, 40.71427]}, "properties": {"title": "New York City", "id": "amp_place_id_28", "country_code": "US"}}, {"type": "Feature", "geometry": {"type": "Point", "coordinates": [16.37208, 48.20849]}, "properties": {"title": "Vienna", "id": "amp_place_id_1", "country_code": "AT"}}, {"type": "Feature", "geometry": {"type": "Point", "coordinates": [-98.5, 39.76]}, "properties": {"title": "U.S", "id": "amp_place_id_15", "country_code": "US"}}, {"type": "Feature", "geometry": {"type": "Point", "coordinates": [-98.5, 39.76]}, "properties": {"title": "U.S", "id": "amp_place_id_15", "country_code": "US"}}, {"type": "Feature", "geometry": {"type": "Point", "coordinates": [-2.69531, 54.75844]}, "properties": {"title": "UK", "id": "amp_place_id_93", "country_code": "GB"}}, {"type": "Feature", "geometry": {"type": "Point", "coordinates": [-2.69531, 54.75844]}, "properties": {"title": "UK", "id": "amp_place_id_93", "country_code": "GB"}}, {"type": "Feature", "geometry": {"type": "Point", "coordinates": [-74.00597, 40.71427]}, "properties": {"title": "New York City", "id": "amp_place_id_28", "country_code": "US"}}, {"type": "Feature", "geometry": {"type": "Point", "coordinates": [-116.78467, 34.68743]}, "properties": {"title": "California", "id": "amp_place_id_209", "country_code": "US"}}, {"type": "Feature", "geometry": {"type": "Point", "coordinates": [-2.69531, 54.75844]}, "properties": {"title": "UK", "id": "amp_place_id_93", "country_code": "GB"}}, {"type": "Feature", "geometry": {"type": "Point", "coordinates": [-74.00597, 40.71427]}, "properties": {"title": "New York City", "id": "amp_place_id_28", "country_code": "US"}}, {"type": "Feature", "geometry": {"type": "Point", "coordinates": [13.33333, 47.33333]}, "properties": {"title": "Austria", "id": "amp_place_id_10", "country_code": "AT"}}, {"type": "Feature", "geometry": {"type": "Point", "coordinates": [10.5, 51.5]}, "properties": {"title": "Germany", "id": "amp_place_id_20", "country_code": "DE"}}, {"type": "Feature", "geometry": {"type": "Point", "coordinates": [16.37208, 48.20849]}, "properties": {"title": "Vienna", "id": "amp_place_id_1", "country_code": "AT"}}, {"type": "Feature", "geometry": {"type": "Point", "coordinates": [-2.69531, 54.75844]}, "properties": {"title": "UK", "id": "amp_place_id_93", "country_code": "GB"}}, {"type": "Feature", "geometry": {"type": "Point", "coordinates": [-73.97248554818371, 40.762125992842755]}, "properties": {"title": "575 Madison Avenue", "id": "amp_place_id_221", "country_code": null}}, {"type": "Feature", "geometry": {"type": "Point", "coordinates": [-74.00597, 40.71427]}, "properties": {"title": "New York City", "id": "amp_place_id_28", "country_code": "US"}}, {"type": "Feature", "geometry": {"type": "Point", "coordinates": [-6.24889, 53.33306]}, "properties": {"title": "Dublin", "id": "amp_place_id_108", "country_code": "IE"}}, {"type": "Feature", "geometry": {"type": "Point", "coordinates": [-6.24889, 53.33306]}, "properties": {"title": "Dublin", "id": "amp_place_id_108", "country_code": "IE"}}, {"type": "Feature", "geometry": {"type": "Point", "coordinates": [-74.00597, 40.71427]}, "properties": {"title": "New York City", "id": "amp_place_id_28", "country_code": "US"}}, {"type": "Feature", "geometry": {"type": "Point", "coordinates": [13.41053, 52.52437]}, "properties": {"title": "Berlin", "id": "amp_place_id_17", "country_code": "DE"}}, {"type": "Feature", "geometry": {"type": "Point", "coordinates": [16.37208, 48.20849]}, "properties": {"title": "Vienna", "id": "amp_place_id_1", "country_code": "AT"}}, {"type": "Feature", "geometry": {"type": "Point", "coordinates": [2.3488, 48.85341]}, "properties": {"title": "Paris", "id": "amp_place_id_84", "country_code": "FR"}}, {"type": "Feature", "geometry": {"type": "Point", "coordinates": [-98.5, 39.76]}, "properties": {"title": "U.S", "id": "amp_place_id_15", "country_code": "US"}}, {"type": "Feature", "geometry": {"type": "Point", "coordinates": [16.37058, 48.206]}, "properties": {"title": "Neuer Markt", "id": "amp_place_id_95", "country_code": "AT"}}, {"type": "Feature", "geometry": {"type": "Point", "coordinates": [16.37208, 48.20849]}, "properties": {"title": "Vienna", "id": "amp_place_id_1", "country_code": "AT"}}]}