{"type": "FeatureCollection", "features": [{"type": "Feature", "geometry": {"type": "Point", "coordinates": [-74.00597, 40.71427]}, "properties": {"title": "Ford Foundation", "id": "amp_organization_1", "title_plc": "New York City", "id_plc": "amp_place_id_28", "country_code": "US"}}, {"type": "Feature", "geometry": {"type": "Point", "coordinates": [-74.00597, 40.71427]}, "properties": {"title": "American Academy of Arts and Letters", "id": "amp_organization_2", "title_plc": "New York City", "id_plc": "amp_place_id_28", "country_code": "US"}}, {"type": "Feature", "geometry": {"type": "Point", "coordinates": [-0.12799, 51.52223]}, "properties": {"title": "Faber & Faber", "id": "amp_organization_5", "title_plc": "24 Russell Square", "id_plc": "amp_place_id_44", "country_code": "GB"}}, {"type": "Feature", "geometry": {"type": "Point", "coordinates": [-1.25596, 51.75222]}, "properties": {"title": "Christ Church", "id": "amp_organization_6", "title_plc": "Oxford", "id_plc": "amp_place_id_46", "country_code": "GB"}}, {"type": "Feature", "geometry": {"type": "Point", "coordinates": [-71.05977, 42.35843]}, "properties": {"title": "Houghton Mifflin Company", "id": "amp_organization_7", "title_plc": "Boston", "id_plc": "amp_place_id_155", "country_code": "US"}}, {"type": "Feature", "geometry": {"type": "Point", "coordinates": [-74.00597, 40.71427]}, "properties": {"title": "Simon & Schuster", "id": "amp_organization_8", "title_plc": "New York City", "id_plc": "amp_place_id_28", "country_code": "US"}}, {"type": "Feature", "geometry": {"type": "Point", "coordinates": [16.36624, 48.20882]}, "properties": {"title": "\u00d6sterreichische Gesellschaft f\u00fcr Literatur (Austrian Society for Literature)", "id": "amp_organization_9", "title_plc": "Palais Wilczek", "id_plc": "amp_place_id_177", "country_code": "AT"}}, {"type": "Feature", "geometry": {"type": "Point", "coordinates": [16.37208, 48.20849]}, "properties": {"title": "PEN Austria", "id": "amp_organization_10", "title_plc": "Vienna", "id_plc": "amp_place_id_1", "country_code": "AT"}}, {"type": "Feature", "geometry": {"type": "Point", "coordinates": [16.37208, 48.20849]}, "properties": {"title": "Creditanstalt-Bankverein", "id": "amp_organization_11", "title_plc": "Vienna", "id_plc": "amp_place_id_1", "country_code": "AT"}}, {"type": "Feature", "geometry": {"type": "Point", "coordinates": [-74.00597, 40.71427]}, "properties": {"title": "Random House", "id": "amp_organization_12", "title_plc": "New York City", "id_plc": "amp_place_id_28", "country_code": "US"}}, {"type": "Feature", "geometry": {"type": "Point", "coordinates": [-0.12574, 51.50853]}, "properties": {"title": "Virago Press", "id": "amp_organization_13", "title_plc": "London", "id_plc": "amp_place_id_56", "country_code": "GB"}}, {"type": "Feature", "geometry": {"type": "Point", "coordinates": [-74.00597, 40.71427]}, "properties": {"title": "LIFE", "id": "amp_organization_15", "title_plc": "New York City", "id_plc": "amp_place_id_28", "country_code": "US"}}, {"type": "Feature", "geometry": {"type": "Point", "coordinates": [-0.12574, 51.50853]}, "properties": {"title": "British Council", "id": "amp_organization_16", "title_plc": "London", "id_plc": "amp_place_id_56", "country_code": "GB"}}, {"type": "Feature", "geometry": {"type": "Point", "coordinates": [-72.92816, 41.30815]}, "properties": {"title": "Beinecke Rare Book & Manuscript Library", "id": "amp_organization_17", "title_plc": "New Haven", "id_plc": "amp_place_id_222", "country_code": "US"}}, {"type": "Feature", "geometry": {"type": "Point", "coordinates": [-72.92816, 41.30815]}, "properties": {"title": "Yale University", "id": "amp_organization_18", "title_plc": "New Haven", "id_plc": "amp_place_id_222", "country_code": "US"}}, {"type": "Feature", "geometry": {"type": "Point", "coordinates": [-2.69531, 54.75844]}, "properties": {"title": "GPO Film Unit", "id": "amp_organization_19", "title_plc": "United Kingdom", "id_plc": "amp_place_id_93", "country_code": "GB"}}, {"type": "Feature", "geometry": {"type": "Point", "coordinates": [-0.12574, 51.50853]}, "properties": {"title": "The Sunday Times", "id": "amp_organization_20", "title_plc": "London", "id_plc": "amp_place_id_56", "country_code": "GB"}}, {"type": "Feature", "geometry": {"type": "Point", "coordinates": [-74.00597, 40.71427]}, "properties": {"title": "The New York Times", "id": "amp_organization_21", "title_plc": "New York City", "id_plc": "amp_place_id_28", "country_code": "US"}}, {"type": "Feature", "geometry": {"type": "Point", "coordinates": [-0.12574, 51.50853]}, "properties": {"title": "BBC Television", "id": "amp_organization_22", "title_plc": "London", "id_plc": "amp_place_id_56", "country_code": "GB"}}, {"type": "Feature", "geometry": {"type": "Point", "coordinates": [-0.12574, 51.50853]}, "properties": {"title": "Financial Times", "id": "amp_organization_23", "title_plc": "London", "id_plc": "amp_place_id_56", "country_code": "GB"}}, {"type": "Feature", "geometry": {"type": "Point", "coordinates": [-74.00597, 40.71427]}, "properties": {"title": "National Review", "id": "amp_organization_24", "title_plc": "New York City", "id_plc": "amp_place_id_28", "country_code": "US"}}, {"type": "Feature", "geometry": {"type": "Point", "coordinates": [16.37208, 48.20849]}, "properties": {"title": "Die Furche", "id": "amp_organization_25", "title_plc": "Vienna", "id_plc": "amp_place_id_1", "country_code": "AT"}}, {"type": "Feature", "geometry": {"type": "Point", "coordinates": [16.37208, 48.20849]}, "properties": {"title": "Europa Verlag", "id": "amp_organization_26", "title_plc": "Vienna", "id_plc": "amp_place_id_1", "country_code": "AT"}}, {"type": "Feature", "geometry": {"type": "Point", "coordinates": [16.39482, 48.19811]}, "properties": {"title": "Embassy of the United Kingdom in Austria", "id": "amp_organization_27", "title_plc": "Landstra\u00dfe", "id_plc": "amp_place_id_156", "country_code": "AT"}}, {"type": "Feature", "geometry": {"type": "Point", "coordinates": [-0.12574, 51.50853]}, "properties": {"title": "BBC Radio", "id": "amp_organization_28", "title_plc": "London", "id_plc": "amp_place_id_56", "country_code": "GB"}}, {"type": "Feature", "geometry": {"type": "Point", "coordinates": [-74.00597, 40.71427]}, "properties": {"title": "Curtis Brown, Ltd.", "id": "amp_organization_29", "title_plc": "New York City", "id_plc": "amp_place_id_28", "country_code": "US"}}, {"type": "Feature", "geometry": {"type": "Point", "coordinates": [-74.00597, 40.71427]}, "properties": {"title": "Columbia University", "id": "amp_organization_30", "title_plc": "New York City", "id_plc": "amp_place_id_28", "country_code": "US"}}, {"type": "Feature", "geometry": {"type": "Point", "coordinates": [-6.24889, 53.33306]}, "properties": {"title": "University of Dublin", "id": "amp_organization_31", "title_plc": "Dublin", "id_plc": "amp_place_id_108", "country_code": "IE"}}, {"type": "Feature", "geometry": {"type": "Point", "coordinates": [-6.24889, 53.33306]}, "properties": {"title": "Trinity College Dublin", "id": "amp_organization_32", "title_plc": "Dublin", "id_plc": "amp_place_id_108", "country_code": "IE"}}, {"type": "Feature", "geometry": {"type": "Point", "coordinates": [-0.12574, 51.50853]}, "properties": {"title": "Group Theatre (London)", "id": "amp_organization_33", "title_plc": "London", "id_plc": "amp_place_id_56", "country_code": "GB"}}, {"type": "Feature", "geometry": {"type": "Point", "coordinates": [13.41053, 52.52437]}, "properties": {"title": "Senate of Berlin", "id": "amp_organization_34", "title_plc": "Berlin", "id_plc": "amp_place_id_17", "country_code": "DE"}}, {"type": "Feature", "geometry": {"type": "Point", "coordinates": [16.37208, 48.20849]}, "properties": {"title": "\u00d6sterreichisch-Britische Gesellschaft (Austro-British Society)", "id": "amp_organization_35", "title_plc": "Vienna", "id_plc": "amp_place_id_1", "country_code": "AT"}}, {"type": "Feature", "geometry": {"type": "Point", "coordinates": [2.3488, 48.85341]}, "properties": {"title": "University of Paris", "id": "amp_organization_36", "title_plc": "Paris", "id_plc": "amp_place_id_84", "country_code": "FR"}}, {"type": "Feature", "geometry": {"type": "Point", "coordinates": [16.37208, 48.20849]}, "properties": {"title": "Gebr\u00fcder Wild", "id": "amp_organization_38", "title_plc": "Vienna", "id_plc": "amp_place_id_1", "country_code": "AT"}}, {"type": "Feature", "geometry": {"type": "Point", "coordinates": [16.37208, 48.20849]}, "properties": {"title": "Die Presse", "id": "amp_organization_39", "title_plc": "Vienna", "id_plc": "amp_place_id_1", "country_code": "AT"}}, {"type": "Feature", "geometry": {"type": "Point", "coordinates": [16.37208, 48.20849]}, "properties": {"title": "\u00d6sterreichische Post- und Telegraphenverwaltung (Austrian Postal and Telegraph Administration)", "id": "amp_organization_40", "title_plc": "Vienna", "id_plc": "amp_place_id_1", "country_code": "AT"}}, {"type": "Feature", "geometry": {"type": "Point", "coordinates": [8.68417, 50.11552]}, "properties": {"title": "Die neue Rundschau", "id": "amp_organization_41", "title_plc": "Frankfurt am Main", "id_plc": "amp_place_id_33", "country_code": "DE"}}, {"type": "Feature", "geometry": {"type": "Point", "coordinates": [15.63333, 48.2]}, "properties": {"title": "University Hospital in St. P\u00f6lten", "id": "amp_organization_42", "title_plc": "St. P\u00f6lten", "id_plc": "amp_place_id_9", "country_code": "AT"}}, {"type": "Feature", "geometry": {"type": "Point", "coordinates": [16.37208, 48.20849]}, "properties": {"title": "Bundesministerium f\u00fcr Unterricht und Kunst (Federal Ministry of Education and the Arts)", "id": "amp_organization_43", "title_plc": "Vienna", "id_plc": "amp_place_id_1", "country_code": "AT"}}, {"type": "Feature", "geometry": {"type": "Point", "coordinates": [15.63333, 48.2]}, "properties": {"title": "Amt der nieder\u00f6sterreichischen Landesregierung (Office of the\u00a0Federal Government of Lower Austria)", "id": "amp_organization_44", "title_plc": "St. P\u00f6lten", "id_plc": "amp_place_id_9", "country_code": "AT"}}, {"type": "Feature", "geometry": {"type": "Point", "coordinates": [-0.12574, 51.50853]}, "properties": {"title": "English PEN", "id": "amp_organization_47", "title_plc": "London", "id_plc": "amp_place_id_56", "country_code": "GB"}}, {"type": "Feature", "geometry": {"type": "Point", "coordinates": [-0.12574, 51.50853]}, "properties": {"title": "The Times", "id": "amp_organization_49", "title_plc": "London", "id_plc": "amp_place_id_56", "country_code": "GB"}}, {"type": "Feature", "geometry": {"type": "Point", "coordinates": [-0.12574, 51.50853]}, "properties": {"title": "PEN International", "id": "amp_organization_51", "title_plc": "London", "id_plc": "amp_place_id_56", "country_code": "GB"}}, {"type": "Feature", "geometry": {"type": "Point", "coordinates": [16.37208, 48.20849]}, "properties": {"title": "Berufsfeuerwehr Wien (Fire brigade of Vienna)", "id": "amp_organization_52", "title_plc": "Vienna", "id_plc": "amp_place_id_1", "country_code": "AT"}}, {"type": "Feature", "geometry": {"type": "Point", "coordinates": [-0.12574, 51.50853]}, "properties": {"title": "The Sunday Telegraph", "id": "amp_organization_53", "title_plc": "London", "id_plc": "amp_place_id_56", "country_code": "GB"}}, {"type": "Feature", "geometry": {"type": "Point", "coordinates": [-0.12574, 51.50853]}, "properties": {"title": "London Underground", "id": "amp_organization_54", "title_plc": "London", "id_plc": "amp_place_id_56", "country_code": "GB"}}, {"type": "Feature", "geometry": {"type": "Point", "coordinates": [-1.25596, 51.75222]}, "properties": {"title": "University of Oxford", "id": "amp_organization_55", "title_plc": "Oxford", "id_plc": "amp_place_id_46", "country_code": "GB"}}, {"type": "Feature", "geometry": {"type": "Point", "coordinates": [16.37208, 48.20849]}, "properties": {"title": "TU Wien (Vienna University of Technology)", "id": "amp_organization_56", "title_plc": "Vienna", "id_plc": "amp_place_id_1", "country_code": "AT"}}, {"type": "Feature", "geometry": {"type": "Point", "coordinates": [1.07992, 51.27904]}, "properties": {"title": "Eliot College", "id": "amp_organization_57", "title_plc": "Canterbury", "id_plc": "amp_place_id_39", "country_code": "GB"}}, {"type": "Feature", "geometry": {"type": "Point", "coordinates": [-83.74088, 42.27756]}, "properties": {"title": "University of Michigan", "id": "amp_organization_58", "title_plc": "Ann Arbor", "id_plc": "amp_place_id_298", "country_code": "US"}}, {"type": "Feature", "geometry": {"type": "Point", "coordinates": [16.37208, 48.20849]}, "properties": {"title": "Burgtheater", "id": "amp_organization_59", "title_plc": "Vienna", "id_plc": "amp_place_id_1", "country_code": "AT"}}, {"type": "Feature", "geometry": {"type": "Point", "coordinates": [16.37208, 48.20849]}, "properties": {"title": "K\u00fcnstlerhaus Wien", "id": "amp_organization_60", "title_plc": "Vienna", "id_plc": "amp_place_id_1", "country_code": "AT"}}, {"type": "Feature", "geometry": {"type": "Point", "coordinates": [16.37208, 48.20849]}, "properties": {"title": "Naturhistorisches Museum Wien (Natural History Museum Vienna)", "id": "amp_organization_61", "title_plc": "Vienna", "id_plc": "amp_place_id_1", "country_code": "AT"}}, {"type": "Feature", "geometry": {"type": "Point", "coordinates": [13.04399, 47.79941]}, "properties": {"title": "Gro\u00dfes Festspielhaus (Large Festival House)", "id": "amp_organization_62", "title_plc": "Salzburg", "id_plc": "amp_place_id_37", "country_code": "AT"}}, {"type": "Feature", "geometry": {"type": "Point", "coordinates": [-74.00597, 40.71427]}, "properties": {"title": "The New Yorker", "id": "amp_organization_65", "title_plc": "New York City", "id_plc": "amp_place_id_28", "country_code": "US"}}, {"type": "Feature", "geometry": {"type": "Point", "coordinates": [9.99302, 53.55073]}, "properties": {"title": "Die Zeit", "id": "amp_organization_66", "title_plc": "Hamburg", "id_plc": "amp_place_id_126", "country_code": "DE"}}, {"type": "Feature", "geometry": {"type": "Point", "coordinates": [16.37208, 48.20849]}, "properties": {"title": "Kronenzeitung", "id": "amp_organization_67", "title_plc": "Vienna", "id_plc": "amp_place_id_1", "country_code": "AT"}}, {"type": "Feature", "geometry": {"type": "Point", "coordinates": [13.33333, 47.33333]}, "properties": {"title": "morgen", "id": "amp_organization_68", "title_plc": "Austria", "id_plc": "amp_place_id_10", "country_code": "AT"}}, {"type": "Feature", "geometry": {"type": "Point", "coordinates": [-1.25596, 51.75222]}, "properties": {"title": "Oxford University Press", "id": "amp_organization_69", "title_plc": "Oxford", "id_plc": "amp_place_id_46", "country_code": "GB"}}, {"type": "Feature", "geometry": {"type": "Point", "coordinates": [15.81667, 48.18333]}, "properties": {"title": "Postamt Kirchstetten (post office Kirchstetten)", "id": "amp_organization_70", "title_plc": "Kirchstetten", "id_plc": "amp_place_id_5", "country_code": "AT"}}, {"type": "Feature", "geometry": {"type": "Point", "coordinates": [15.55345, 48.14651]}, "properties": {"title": "Postamt Ober-Grafendorf (post office Ober-Grafendorf)", "id": "amp_organization_71", "title_plc": "Ober-Grafendorf", "id_plc": "amp_place_id_8", "country_code": "AT"}}, {"type": "Feature", "geometry": {"type": "Point", "coordinates": [15.22478, 48.07064]}, "properties": {"title": "Postamt Oberndorf an der Melk (post office Oberndorf an der Melk)", "id": "amp_organization_72", "title_plc": "Oberndorf an der Melk", "id_plc": "amp_place_id_311", "country_code": "AT"}}, {"type": "Feature", "geometry": {"type": "Point", "coordinates": [16.39482, 48.19811]}, "properties": {"title": "Hauptpostamt 1030 (main post office 1030)", "id": "amp_organization_73", "title_plc": "Landstra\u00dfe", "id_plc": "amp_place_id_156", "country_code": "AT"}}, {"type": "Feature", "geometry": {"type": "Point", "coordinates": [16.36714, 48.19198]}, "properties": {"title": "Hauptpostamt 1040 (main post office 1040)", "id": "amp_organization_74", "title_plc": "Wieden", "id_plc": "amp_place_id_308", "country_code": "AT"}}, {"type": "Feature", "geometry": {"type": "Point", "coordinates": [16.33722, 48.19667]}, "properties": {"title": "Postamt 101 (post office 101)", "id": "amp_organization_75", "title_plc": "Vienna West railway station", "id_plc": "amp_place_id_309", "country_code": "AT"}}, {"type": "Feature", "geometry": {"type": "Point", "coordinates": [16.32749, 48.19625]}, "properties": {"title": "Bezirksabgabeamt Rudolfsheim-F\u00fcnfhaus (district post office Rudolfsheim-F\u00fcnfhaus)", "id": "amp_organization_76", "title_plc": "Rudolfsheim-F\u00fcnfhaus", "id_plc": "amp_place_id_310", "country_code": "AT"}}, {"type": "Feature", "geometry": {"type": "Point", "coordinates": [10.5, 51.5]}, "properties": {"title": "Deutsche Bundespost (German Federal Post Office)", "id": "amp_organization_77", "title_plc": "Federal Republic of Germany", "id_plc": "amp_place_id_20", "country_code": "DE"}}, {"type": "Feature", "geometry": {"type": "Point", "coordinates": [13.41053, 52.52437]}, "properties": {"title": "Postamt Berlin 33 (post office Berlin 33)", "id": "amp_organization_78", "title_plc": "Berlin", "id_plc": "amp_place_id_17", "country_code": "DE"}}, {"type": "Feature", "geometry": {"type": "Point", "coordinates": [13.41053, 52.52437]}, "properties": {"title": "Postamt Berlin 11 (post office Berlin 11)", "id": "amp_organization_79", "title_plc": "Berlin", "id_plc": "amp_place_id_17", "country_code": "DE"}}, {"type": "Feature", "geometry": {"type": "Point", "coordinates": [-0.12574, 51.50853]}, "properties": {"title": "General Post Office", "id": "amp_organization_80", "title_plc": "London", "id_plc": "amp_place_id_56", "country_code": "GB"}}, {"type": "Feature", "geometry": {"type": "Point", "coordinates": [-1.25596, 51.75222]}, "properties": {"title": "Post office Oxford", "id": "amp_organization_81", "title_plc": "Oxford", "id_plc": "amp_place_id_46", "country_code": "GB"}}, {"type": "Feature", "geometry": {"type": "Point", "coordinates": [-0.12574, 51.50853]}, "properties": {"title": "London Western District Office", "id": "amp_organization_82", "title_plc": "London", "id_plc": "amp_place_id_56", "country_code": "GB"}}, {"type": "Feature", "geometry": {"type": "Point", "coordinates": [-0.17467, 51.52991]}, "properties": {"title": "St John's Wood district office", "id": "amp_organization_83", "title_plc": "St John's Wood", "id_plc": "amp_place_id_272", "country_code": "GB"}}, {"type": "Feature", "geometry": {"type": "Point", "coordinates": [-77.03637, 38.89511]}, "properties": {"title": "United States Post Office Department", "id": "amp_organization_84", "title_plc": "Washington, D.C.", "id_plc": "amp_place_id_306", "country_code": "US"}}, {"type": "Feature", "geometry": {"type": "Point", "coordinates": [-73.96625, 40.78343]}, "properties": {"title": "U. S. General Post Office", "id": "amp_organization_85", "title_plc": "Manhattan", "id_plc": "amp_place_id_168", "country_code": "US"}}, {"type": "Feature", "geometry": {"type": "Point", "coordinates": [16.36881, 48.20227]}, "properties": {"title": "Amerikahaus", "id": "amp_organization_86", "title_plc": "Amerikahaus Vienna (1957-1971)", "id_plc": "amp_place_id_27", "country_code": "AT"}}, {"type": "Feature", "geometry": {"type": "Point", "coordinates": [15.75, 48.33333]}, "properties": {"title": "Flughafen Wien-Schwechat (Vienna International Airport)", "id": "amp_organization_87", "title_plc": "Lower Austria", "id_plc": "amp_place_id_6", "country_code": "AT"}}, {"type": "Feature", "geometry": {"type": "Point", "coordinates": [16.37208, 48.20849]}, "properties": {"title": "\u00d6sterreichischer Rundfunk (Austrian Broadcasting Corporation)", "id": "amp_organization_88", "title_plc": "Vienna", "id_plc": "amp_place_id_1", "country_code": "AT"}}, {"type": "Feature", "geometry": {"type": "Point", "coordinates": [13.41053, 52.52437]}, "properties": {"title": "Ford Foundation Artist-in-Residence Program", "id": "amp_organization_89", "title_plc": "Berlin", "id_plc": "amp_place_id_17", "country_code": "DE"}}, {"type": "Feature", "geometry": {"type": "Point", "coordinates": [16.37208, 48.20849]}, "properties": {"title": "Vienna State Opera", "id": "amp_organization_90", "title_plc": "Vienna", "id_plc": "amp_place_id_1", "country_code": "AT"}}, {"type": "Feature", "geometry": {"type": "Point", "coordinates": [16.37208, 48.20849]}, "properties": {"title": "Bezirksabgabeamt Brigittenau (district post office Brigittenau)", "id": "amp_organization_91", "title_plc": "Vienna", "id_plc": "amp_place_id_1", "country_code": "AT"}}, {"type": "Feature", "geometry": {"type": "Point", "coordinates": [13.41053, 52.52437]}, "properties": {"title": "Flughafen Berlin-Tempelhof (Berlin Tempelhof Airport)", "id": "amp_organization_92", "title_plc": "Berlin", "id_plc": "amp_place_id_17", "country_code": "DE"}}, {"type": "Feature", "geometry": {"type": "Point", "coordinates": [16.37208, 48.20849]}, "properties": {"title": "Telegraphenzentralstation Wien (Vienna telegraph central station)", "id": "amp_organization_93", "title_plc": "Vienna", "id_plc": "amp_place_id_1", "country_code": "AT"}}, {"type": "Feature", "geometry": {"type": "Point", "coordinates": [-74.00597, 40.71427]}, "properties": {"title": "Pan American World Airways", "id": "amp_organization_94", "title_plc": "New York City", "id_plc": "amp_place_id_28", "country_code": "US"}}, {"type": "Feature", "geometry": {"type": "Point", "coordinates": [13.41053, 52.52437]}, "properties": {"title": "Flughafen Berlin-Tegel (Berlin Tegel Airport)", "id": "amp_organization_95", "title_plc": "Berlin", "id_plc": "amp_place_id_17", "country_code": "DE"}}, {"type": "Feature", "geometry": {"type": "Point", "coordinates": [-74.00597, 40.71427]}, "properties": {"title": "John F. Kennedy International Airport", "id": "amp_organization_96", "title_plc": "New York City", "id_plc": "amp_place_id_28", "country_code": "US"}}, {"type": "Feature", "geometry": {"type": "Point", "coordinates": [-74.00597, 40.71427]}, "properties": {"title": "United States Post Office Church Street Station", "id": "amp_organization_97", "title_plc": "New York City", "id_plc": "amp_place_id_28", "country_code": "US"}}, {"type": "Feature", "geometry": {"type": "Point", "coordinates": [-74.00597, 40.71427]}, "properties": {"title": "United States Post Office Cooper Station", "id": "amp_organization_98", "title_plc": "New York City", "id_plc": "amp_place_id_28", "country_code": "US"}}, {"type": "Feature", "geometry": {"type": "Point", "coordinates": [16.37208, 48.20849]}, "properties": {"title": "Sozialistische Partei \u00d6sterreichs (Socialist Party of Austria)", "id": "amp_organization_99", "title_plc": "Vienna", "id_plc": "amp_place_id_1", "country_code": "AT"}}, {"type": "Feature", "geometry": {"type": "Point", "coordinates": [15.63333, 48.2]}, "properties": {"title": "Kreisgericht St. P\u00f6lten (St. P\u00f6lten district court)", "id": "amp_organization_100", "title_plc": "St. P\u00f6lten", "id_plc": "amp_place_id_9", "country_code": "AT"}}, {"type": "Feature", "geometry": {"type": "Point", "coordinates": [16.37208, 48.20849]}, "properties": {"title": "Bundesgendarmerie (Federal Gendarmerie)", "id": "amp_organization_101", "title_plc": "Vienna", "id_plc": "amp_place_id_1", "country_code": "AT"}}, {"type": "Feature", "geometry": {"type": "Point", "coordinates": [10.7815, 52.42452]}, "properties": {"title": "Volkswagen Versicherungsdienst GmbH", "id": "amp_organization_102", "title_plc": "Wolfsburg", "id_plc": "amp_place_id_361", "country_code": "DE"}}, {"type": "Feature", "geometry": {"type": "Point", "coordinates": [9.17702, 48.78232]}, "properties": {"title": "S\u00fcddeutscher Rundfunk", "id": "amp_organization_103", "title_plc": "Stuttgart", "id_plc": "amp_place_id_365", "country_code": "DE"}}, {"type": "Feature", "geometry": {"type": "Point", "coordinates": [9.99302, 53.55073]}, "properties": {"title": "Postamt Hamburg Flughafen (post office Hamburg Airport)", "id": "amp_organization_104", "title_plc": "Hamburg", "id_plc": "amp_place_id_126", "country_code": "DE"}}, {"type": "Feature", "geometry": {"type": "Point", "coordinates": [8.5823, 49.38217]}, "properties": {"title": "Schlosstheater Schwetzingen (Schwetzingen palace theater)", "id": "amp_organization_107", "title_plc": "Schwetzingen", "id_plc": "amp_place_id_366", "country_code": "DE"}}, {"type": "Feature", "geometry": {"type": "Point", "coordinates": [-0.12574, 51.50853]}, "properties": {"title": "A.V. Fry & Co., Ltd.", "id": "amp_organization_108", "title_plc": "London", "id_plc": "amp_place_id_56", "country_code": "GB"}}, {"type": "Feature", "geometry": {"type": "Point", "coordinates": [-1.25596, 51.75222]}, "properties": {"title": "Penrose & Palmer", "id": "amp_organization_110", "title_plc": "Oxford", "id_plc": "amp_place_id_46", "country_code": "GB"}}, {"type": "Feature", "geometry": {"type": "Point", "coordinates": [-0.12574, 51.50853]}, "properties": {"title": "Larkin Bros. Ltd.", "id": "amp_organization_112", "title_plc": "London", "id_plc": "amp_place_id_56", "country_code": "GB"}}, {"type": "Feature", "geometry": {"type": "Point", "coordinates": [-87.65005, 41.85003]}, "properties": {"title": "H. S. Crocker Co., Inc.", "id": "amp_organization_113", "title_plc": "Chicago", "id_plc": "amp_place_id_129", "country_code": "US"}}, {"type": "Feature", "geometry": {"type": "Point", "coordinates": [-87.65005, 41.85003]}, "properties": {"title": "Chicago Natural History Museum", "id": "amp_organization_114", "title_plc": "Chicago", "id_plc": "amp_place_id_129", "country_code": "US"}}, {"type": "Feature", "geometry": {"type": "Point", "coordinates": [13.41053, 52.52437]}, "properties": {"title": "Klinke & Co.", "id": "amp_organization_115", "title_plc": "Berlin", "id_plc": "amp_place_id_17", "country_code": "DE"}}, {"type": "Feature", "geometry": {"type": "Point", "coordinates": [11.57549, 48.13743]}, "properties": {"title": "Bahnhofsbuchhandlung Max Sussmann", "id": "amp_organization_118", "title_plc": "Munich", "id_plc": "amp_place_id_26", "country_code": "DE"}}, {"type": "Feature", "geometry": {"type": "Point", "coordinates": [11.57549, 48.13743]}, "properties": {"title": "M\u00fcnchen Bahnpostamt (Munich railway post office)", "id": "amp_organization_119", "title_plc": "Munich", "id_plc": "amp_place_id_26", "country_code": "DE"}}, {"type": "Feature", "geometry": {"type": "Point", "coordinates": [18.06871, 59.32938]}, "properties": {"title": "Grafisk Konst", "id": "amp_organization_135", "title_plc": "Stockholm", "id_plc": "amp_place_id_344", "country_code": "SE"}}, {"type": "Feature", "geometry": {"type": "Point", "coordinates": [18.06871, 59.32938]}, "properties": {"title": "Post office Stockholm railway station", "id": "amp_organization_136", "title_plc": "Stockholm", "id_plc": "amp_place_id_344", "country_code": "SE"}}, {"type": "Feature", "geometry": {"type": "Point", "coordinates": [13.41053, 52.52437]}, "properties": {"title": "Hans Andres Verlag", "id": "amp_organization_138", "title_plc": "Berlin", "id_plc": "amp_place_id_17", "country_code": "DE"}}, {"type": "Feature", "geometry": {"type": "Point", "coordinates": [12.20121, 44.41344]}, "properties": {"title": "E. Salbaroli", "id": "amp_organization_139", "title_plc": "Ravenna", "id_plc": "amp_place_id_31", "country_code": "IT"}}, {"type": "Feature", "geometry": {"type": "Point", "coordinates": [19.04045, 47.49835]}, "properties": {"title": "K\u00e9pz\u0151m\u0171v\u00e9szeti Alap Kiad\u00f3v\u00e1llalata", "id": "amp_organization_140", "title_plc": "Budapest", "id_plc": "amp_place_id_86", "country_code": "HU"}}, {"type": "Feature", "geometry": {"type": "Point", "coordinates": [19.04045, 47.49835]}, "properties": {"title": "Magyar T\u00e1virati Iroda", "id": "amp_organization_141", "title_plc": "Budapest", "id_plc": "amp_place_id_86", "country_code": "HU"}}, {"type": "Feature", "geometry": {"type": "Point", "coordinates": [-1.25596, 51.75222]}, "properties": {"title": "Alfred Savage Ltd.", "id": "amp_organization_143", "title_plc": "Oxford", "id_plc": "amp_place_id_46", "country_code": "GB"}}, {"type": "Feature", "geometry": {"type": "Point", "coordinates": [11.57549, 48.13743]}, "properties": {"title": "M\u00fcnchener Bildkunstverlag August Lengauer", "id": "amp_organization_148", "title_plc": "Munich", "id_plc": "amp_place_id_26", "country_code": "DE"}}, {"type": "Feature", "geometry": {"type": "Point", "coordinates": [13.41053, 52.52437]}, "properties": {"title": "Kunst und Bild GmbH", "id": "amp_organization_151", "title_plc": "Berlin", "id_plc": "amp_place_id_17", "country_code": "DE"}}, {"type": "Feature", "geometry": {"type": "Point", "coordinates": [15.63333, 48.2]}, "properties": {"title": "Nieder\u00f6sterreichische Pressehaus Druck- und Verlagsgesellschaft m.b.H.", "id": "amp_organization_153", "title_plc": "St. P\u00f6lten", "id_plc": "amp_place_id_9", "country_code": "AT"}}, {"type": "Feature", "geometry": {"type": "Point", "coordinates": [15.90219, 48.19745]}, "properties": {"title": "Willinger", "id": "amp_organization_154", "title_plc": "Neulengbach", "id_plc": "amp_place_id_47", "country_code": "AT"}}, {"type": "Feature", "geometry": {"type": "Point", "coordinates": [13.41053, 52.52437]}, "properties": {"title": "Deutsche Oper Berlin", "id": "amp_organization_155", "title_plc": "Berlin", "id_plc": "amp_place_id_17", "country_code": "DE"}}, {"type": "Feature", "geometry": {"type": "Point", "coordinates": [16.37208, 48.20849]}, "properties": {"title": "\u00d6sterreichische Nationalbibliothek (Austrian National Library)", "id": "amp_organization_156", "title_plc": "Vienna", "id_plc": "amp_place_id_1", "country_code": "AT"}}, {"type": "Feature", "geometry": {"type": "Point", "coordinates": [16.37208, 48.20849]}, "properties": {"title": "Ver Sacrum: Neue Hefte f\u00fcr Kunst und Literatur", "id": "amp_organization_157", "title_plc": "Vienna", "id_plc": "amp_place_id_1", "country_code": "AT"}}, {"type": "Feature", "geometry": {"type": "Point", "coordinates": [16.37208, 48.20849]}, "properties": {"title": "Finanzlandesdirektion f\u00fcr Wien, Nieder\u00f6sterreich und Burgenland (Provincial Tax Office for Vienna, Lower Austria and Burgenland)", "id": "amp_organization_158", "title_plc": "Vienna", "id_plc": "amp_place_id_1", "country_code": "AT"}}, {"type": "Feature", "geometry": {"type": "Point", "coordinates": [16.37208, 48.20849]}, "properties": {"title": "Bundesministerium f\u00fcr Finanzen (Federal Ministry of Finance)", "id": "amp_organization_161", "title_plc": "Vienna", "id_plc": "amp_place_id_1", "country_code": "AT"}}]}