{"type": "FeatureCollection", "features": [{"type": "Feature", "geometry": {"type": "Point", "coordinates": [-74.00597, 40.71427]}, "properties": {"title": "Ford Foundation", "title_plc": "New York City", "id": "amp_place_id_28", "country_code": "US"}}, {"type": "Feature", "geometry": {"type": "Point", "coordinates": [16.37208, 48.20849]}, "properties": {"title": "American Academy", "title_plc": "Vienna", "id": "amp_place_id_1", "country_code": "AT"}}, {"type": "Feature", "geometry": {"type": "Point", "coordinates": [-98.5, 39.76]}, "properties": {"title": "Episcopalian Church in the States", "title_plc": "U.S", "id": "amp_place_id_15", "country_code": "US"}}, {"type": "Feature", "geometry": {"type": "Point", "coordinates": [-2.69531, 54.75844]}, "properties": {"title": "Church of England", "title_plc": "UK", "id": "amp_place_id_93", "country_code": "GB"}}, {"type": "Feature", "geometry": {"type": "Point", "coordinates": [-2.69531, 54.75844]}, "properties": {"title": "Faber and Faber", "title_plc": "UK", "id": "amp_place_id_93", "country_code": "GB"}}, {"type": "Feature", "geometry": {"type": "Point", "coordinates": [-1.25596, 51.75222]}, "properties": {"title": "Christ Church", "title_plc": "Oxford", "id": "amp_place_id_46", "country_code": "GB"}}, {"type": "Feature", "geometry": {"type": "Point", "coordinates": [-71.05977, 42.35843]}, "properties": {"title": "Houghton Mifflin Company", "title_plc": "Boston", "id": "amp_place_id_155", "country_code": "US"}}, {"type": "Feature", "geometry": {"type": "Point", "coordinates": [-74.00597, 40.71427]}, "properties": {"title": "Simon & Schuster", "title_plc": "New York City", "id": "amp_place_id_28", "country_code": "US"}}, {"type": "Feature", "geometry": {"type": "Point", "coordinates": [16.37208, 48.20849]}, "properties": {"title": "Gesellschaft f\u00fcr Literatur", "title_plc": "Vienna", "id": "amp_place_id_1", "country_code": "AT"}}, {"type": "Feature", "geometry": {"type": "Point", "coordinates": [16.37208, 48.20849]}, "properties": {"title": "PEN Club", "title_plc": "Vienna", "id": "amp_place_id_1", "country_code": "AT"}}, {"type": "Feature", "geometry": {"type": "Point", "coordinates": [16.37208, 48.20849]}, "properties": {"title": "Creditanstalt-Bankverein", "title_plc": "Vienna", "id": "amp_place_id_1", "country_code": "AT"}}, {"type": "Feature", "geometry": {"type": "Point", "coordinates": [-98.5, 39.76]}, "properties": {"title": "Random House", "title_plc": "U.S", "id": "amp_place_id_15", "country_code": "US"}}, {"type": "Feature", "geometry": {"type": "Point", "coordinates": [-0.12574, 51.50853]}, "properties": {"title": "Virago Press", "title_plc": "London", "id": "amp_place_id_56", "country_code": "GB"}}, {"type": "Feature", "geometry": {"type": "Point", "coordinates": [16.37208, 48.20849]}, "properties": {"title": "Kunstlerhaus", "title_plc": "Vienna", "id": "amp_place_id_1", "country_code": "AT"}}, {"type": "Feature", "geometry": {"type": "Point", "coordinates": [-74.00597, 40.71427]}, "properties": {"title": "Group Theatre", "title_plc": "New York City", "id": "amp_place_id_28", "country_code": "US"}}, {"type": "Feature", "geometry": {"type": "Point", "coordinates": [16.37208, 48.20849]}, "properties": {"title": "British Council", "title_plc": "Vienna", "id": "amp_place_id_1", "country_code": "AT"}}, {"type": "Feature", "geometry": {"type": "Point", "coordinates": [-98.5, 39.76]}, "properties": {"title": "Beinecke Library", "title_plc": "U.S", "id": "amp_place_id_15", "country_code": "US"}}, {"type": "Feature", "geometry": {"type": "Point", "coordinates": [-98.5, 39.76]}, "properties": {"title": "Yale University", "title_plc": "U.S", "id": "amp_place_id_15", "country_code": "US"}}, {"type": "Feature", "geometry": {"type": "Point", "coordinates": [-2.69531, 54.75844]}, "properties": {"title": "G.P.O Film Unit", "title_plc": "UK", "id": "amp_place_id_93", "country_code": "GB"}}, {"type": "Feature", "geometry": {"type": "Point", "coordinates": [-2.69531, 54.75844]}, "properties": {"title": "Sunday Times", "title_plc": "UK", "id": "amp_place_id_93", "country_code": "GB"}}, {"type": "Feature", "geometry": {"type": "Point", "coordinates": [-74.00597, 40.71427]}, "properties": {"title": "The New York Times", "title_plc": "New York City", "id": "amp_place_id_28", "country_code": "US"}}, {"type": "Feature", "geometry": {"type": "Point", "coordinates": [-116.78467, 34.68743]}, "properties": {"title": "Crossing Cards", "title_plc": "California", "id": "amp_place_id_209", "country_code": "US"}}, {"type": "Feature", "geometry": {"type": "Point", "coordinates": [-2.69531, 54.75844]}, "properties": {"title": "Financial Times", "title_plc": "UK", "id": "amp_place_id_93", "country_code": "GB"}}, {"type": "Feature", "geometry": {"type": "Point", "coordinates": [-74.00597, 40.71427]}, "properties": {"title": "The National Review", "title_plc": "New York City", "id": "amp_place_id_28", "country_code": "US"}}, {"type": "Feature", "geometry": {"type": "Point", "coordinates": [13.33333, 47.33333]}, "properties": {"title": "Die Furche", "title_plc": "Austria", "id": "amp_place_id_10", "country_code": "AT"}}, {"type": "Feature", "geometry": {"type": "Point", "coordinates": [10.5, 51.5]}, "properties": {"title": "Europa Verlag", "title_plc": "Germany", "id": "amp_place_id_20", "country_code": "DE"}}, {"type": "Feature", "geometry": {"type": "Point", "coordinates": [16.37208, 48.20849]}, "properties": {"title": "British Embassy", "title_plc": "Vienna", "id": "amp_place_id_1", "country_code": "AT"}}, {"type": "Feature", "geometry": {"type": "Point", "coordinates": [-2.69531, 54.75844]}, "properties": {"title": "BBC", "title_plc": "UK", "id": "amp_place_id_93", "country_code": "GB"}}, {"type": "Feature", "geometry": {"type": "Point", "coordinates": [-73.97248554818371, 40.762125992842755]}, "properties": {"title": "Curtis Brown Ltd", "title_plc": "575 Madison Avenue", "id": "amp_place_id_221", "country_code": null}}, {"type": "Feature", "geometry": {"type": "Point", "coordinates": [-74.00597, 40.71427]}, "properties": {"title": "Columbia University", "title_plc": "New York City", "id": "amp_place_id_28", "country_code": "US"}}, {"type": "Feature", "geometry": {"type": "Point", "coordinates": [-6.24889, 53.33306]}, "properties": {"title": "University of Dublin", "title_plc": "Dublin", "id": "amp_place_id_108", "country_code": "IE"}}, {"type": "Feature", "geometry": {"type": "Point", "coordinates": [-6.24889, 53.33306]}, "properties": {"title": "Trinity College", "title_plc": "Dublin", "id": "amp_place_id_108", "country_code": "IE"}}, {"type": "Feature", "geometry": {"type": "Point", "coordinates": [-74.00597, 40.71427]}, "properties": {"title": "Group Theatre", "title_plc": "New York City", "id": "amp_place_id_28", "country_code": "US"}}, {"type": "Feature", "geometry": {"type": "Point", "coordinates": [13.41053, 52.52437]}, "properties": {"title": "Senate of Berlin", "title_plc": "Berlin", "id": "amp_place_id_17", "country_code": "DE"}}, {"type": "Feature", "geometry": {"type": "Point", "coordinates": [16.37208, 48.20849]}, "properties": {"title": "Austro-British Council", "title_plc": "Vienna", "id": "amp_place_id_1", "country_code": "AT"}}, {"type": "Feature", "geometry": {"type": "Point", "coordinates": [2.3488, 48.85341]}, "properties": {"title": "University of Paris", "title_plc": "Paris", "id": "amp_place_id_84", "country_code": "FR"}}, {"type": "Feature", "geometry": {"type": "Point", "coordinates": [-98.5, 39.76]}, "properties": {"title": "Tolkien fan club", "title_plc": "U.S", "id": "amp_place_id_15", "country_code": "US"}}, {"type": "Feature", "geometry": {"type": "Point", "coordinates": [16.37058, 48.206]}, "properties": {"title": "Wild", "title_plc": "Neuer Markt", "id": "amp_place_id_95", "country_code": "AT"}}, {"type": "Feature", "geometry": {"type": "Point", "coordinates": [16.37208, 48.20849]}, "properties": {"title": "Die Presse", "title_plc": "Vienna", "id": "amp_place_id_1", "country_code": "AT"}}]}