{"type": "FeatureCollection", "features": [{"type": "Feature", "geometry": {"type": "Point", "coordinates": [-74.00597, 40.71427]}, "properties": {"title": "Ford Foundation", "id": "amp_organization_1", "title_plc": "New York City", "id_plc": "amp_place_id_28", "country_code": "US"}}, {"type": "Feature", "geometry": {"type": "Point", "coordinates": [16.37208, 48.20849]}, "properties": {"title": "American Academy", "id": "amp_organization_2", "title_plc": "Vienna", "id_plc": "amp_place_id_1", "country_code": "AT"}}, {"type": "Feature", "geometry": {"type": "Point", "coordinates": [-98.5, 39.76]}, "properties": {"title": "Episcopalian Church in the States", "id": "amp_organization_3", "title_plc": "U.S", "id_plc": "amp_place_id_15", "country_code": "US"}}, {"type": "Feature", "geometry": {"type": "Point", "coordinates": [-2.69531, 54.75844]}, "properties": {"title": "Church of England", "id": "amp_organization_4", "title_plc": "UK", "id_plc": "amp_place_id_93", "country_code": "GB"}}, {"type": "Feature", "geometry": {"type": "Point", "coordinates": [-2.69531, 54.75844]}, "properties": {"title": "Faber and Faber", "id": "amp_organization_5", "title_plc": "UK", "id_plc": "amp_place_id_93", "country_code": "GB"}}, {"type": "Feature", "geometry": {"type": "Point", "coordinates": [-1.25596, 51.75222]}, "properties": {"title": "Christ Church", "id": "amp_organization_6", "title_plc": "Oxford", "id_plc": "amp_place_id_46", "country_code": "GB"}}, {"type": "Feature", "geometry": {"type": "Point", "coordinates": [-71.05977, 42.35843]}, "properties": {"title": "Houghton Mifflin Company", "id": "amp_organization_7", "title_plc": "Boston", "id_plc": "amp_place_id_155", "country_code": "US"}}, {"type": "Feature", "geometry": {"type": "Point", "coordinates": [-74.00597, 40.71427]}, "properties": {"title": "Simon & Schuster", "id": "amp_organization_8", "title_plc": "New York City", "id_plc": "amp_place_id_28", "country_code": "US"}}, {"type": "Feature", "geometry": {"type": "Point", "coordinates": [16.37208, 48.20849]}, "properties": {"title": "Gesellschaft f\u00fcr Literatur", "id": "amp_organization_9", "title_plc": "Vienna", "id_plc": "amp_place_id_1", "country_code": "AT"}}, {"type": "Feature", "geometry": {"type": "Point", "coordinates": [16.37208, 48.20849]}, "properties": {"title": "PEN Club", "id": "amp_organization_10", "title_plc": "Vienna", "id_plc": "amp_place_id_1", "country_code": "AT"}}, {"type": "Feature", "geometry": {"type": "Point", "coordinates": [16.37208, 48.20849]}, "properties": {"title": "Creditanstalt-Bankverein", "id": "amp_organization_11", "title_plc": "Vienna", "id_plc": "amp_place_id_1", "country_code": "AT"}}, {"type": "Feature", "geometry": {"type": "Point", "coordinates": [-98.5, 39.76]}, "properties": {"title": "Random House", "id": "amp_organization_12", "title_plc": "U.S", "id_plc": "amp_place_id_15", "country_code": "US"}}, {"type": "Feature", "geometry": {"type": "Point", "coordinates": [-0.12574, 51.50853]}, "properties": {"title": "Virago Press", "id": "amp_organization_13", "title_plc": "London", "id_plc": "amp_place_id_56", "country_code": "GB"}}, {"type": "Feature", "geometry": {"type": "Point", "coordinates": [16.37208, 48.20849]}, "properties": {"title": "Kunstlerhaus", "id": "amp_organization_14", "title_plc": "Vienna", "id_plc": "amp_place_id_1", "country_code": "AT"}}, {"type": "Feature", "geometry": {"type": "Point", "coordinates": [-74.00597, 40.71427]}, "properties": {"title": "Group Theatre", "id": "amp_organization_15", "title_plc": "New York City", "id_plc": "amp_place_id_28", "country_code": "US"}}, {"type": "Feature", "geometry": {"type": "Point", "coordinates": [16.37208, 48.20849]}, "properties": {"title": "British Council", "id": "amp_organization_16", "title_plc": "Vienna", "id_plc": "amp_place_id_1", "country_code": "AT"}}, {"type": "Feature", "geometry": {"type": "Point", "coordinates": [-98.5, 39.76]}, "properties": {"title": "Beinecke Library", "id": "amp_organization_17", "title_plc": "U.S", "id_plc": "amp_place_id_15", "country_code": "US"}}, {"type": "Feature", "geometry": {"type": "Point", "coordinates": [-98.5, 39.76]}, "properties": {"title": "Yale University", "id": "amp_organization_18", "title_plc": "U.S", "id_plc": "amp_place_id_15", "country_code": "US"}}, {"type": "Feature", "geometry": {"type": "Point", "coordinates": [-2.69531, 54.75844]}, "properties": {"title": "G.P.O Film Unit", "id": "amp_organization_19", "title_plc": "UK", "id_plc": "amp_place_id_93", "country_code": "GB"}}, {"type": "Feature", "geometry": {"type": "Point", "coordinates": [-2.69531, 54.75844]}, "properties": {"title": "Sunday Times", "id": "amp_organization_20", "title_plc": "UK", "id_plc": "amp_place_id_93", "country_code": "GB"}}, {"type": "Feature", "geometry": {"type": "Point", "coordinates": [-74.00597, 40.71427]}, "properties": {"title": "The New York Times", "id": "amp_organization_21", "title_plc": "New York City", "id_plc": "amp_place_id_28", "country_code": "US"}}, {"type": "Feature", "geometry": {"type": "Point", "coordinates": [-116.78467, 34.68743]}, "properties": {"title": "Crossing Cards", "id": "amp_organization_22", "title_plc": "California", "id_plc": "amp_place_id_209", "country_code": "US"}}, {"type": "Feature", "geometry": {"type": "Point", "coordinates": [-2.69531, 54.75844]}, "properties": {"title": "Financial Times", "id": "amp_organization_23", "title_plc": "UK", "id_plc": "amp_place_id_93", "country_code": "GB"}}, {"type": "Feature", "geometry": {"type": "Point", "coordinates": [-74.00597, 40.71427]}, "properties": {"title": "The National Review", "id": "amp_organization_24", "title_plc": "New York City", "id_plc": "amp_place_id_28", "country_code": "US"}}, {"type": "Feature", "geometry": {"type": "Point", "coordinates": [13.33333, 47.33333]}, "properties": {"title": "Die Furche", "id": "amp_organization_25", "title_plc": "Austria", "id_plc": "amp_place_id_10", "country_code": "AT"}}, {"type": "Feature", "geometry": {"type": "Point", "coordinates": [10.5, 51.5]}, "properties": {"title": "Europa Verlag", "id": "amp_organization_26", "title_plc": "Germany", "id_plc": "amp_place_id_20", "country_code": "DE"}}, {"type": "Feature", "geometry": {"type": "Point", "coordinates": [16.37208, 48.20849]}, "properties": {"title": "British Embassy", "id": "amp_organization_27", "title_plc": "Vienna", "id_plc": "amp_place_id_1", "country_code": "AT"}}, {"type": "Feature", "geometry": {"type": "Point", "coordinates": [-2.69531, 54.75844]}, "properties": {"title": "BBC", "id": "amp_organization_28", "title_plc": "UK", "id_plc": "amp_place_id_93", "country_code": "GB"}}, {"type": "Feature", "geometry": {"type": "Point", "coordinates": [-73.97248554818371, 40.762125992842755]}, "properties": {"title": "Curtis Brown Ltd", "id": "amp_organization_29", "title_plc": "575 Madison Avenue", "id_plc": "amp_place_id_221", "country_code": null}}, {"type": "Feature", "geometry": {"type": "Point", "coordinates": [-74.00597, 40.71427]}, "properties": {"title": "Columbia University", "id": "amp_organization_30", "title_plc": "New York City", "id_plc": "amp_place_id_28", "country_code": "US"}}, {"type": "Feature", "geometry": {"type": "Point", "coordinates": [-6.24889, 53.33306]}, "properties": {"title": "University of Dublin", "id": "amp_organization_31", "title_plc": "Dublin", "id_plc": "amp_place_id_108", "country_code": "IE"}}, {"type": "Feature", "geometry": {"type": "Point", "coordinates": [-6.24889, 53.33306]}, "properties": {"title": "Trinity College", "id": "amp_organization_32", "title_plc": "Dublin", "id_plc": "amp_place_id_108", "country_code": "IE"}}, {"type": "Feature", "geometry": {"type": "Point", "coordinates": [-74.00597, 40.71427]}, "properties": {"title": "Group Theatre", "id": "amp_organization_33", "title_plc": "New York City", "id_plc": "amp_place_id_28", "country_code": "US"}}, {"type": "Feature", "geometry": {"type": "Point", "coordinates": [13.41053, 52.52437]}, "properties": {"title": "Senate of Berlin", "id": "amp_organization_34", "title_plc": "Berlin", "id_plc": "amp_place_id_17", "country_code": "DE"}}, {"type": "Feature", "geometry": {"type": "Point", "coordinates": [16.37208, 48.20849]}, "properties": {"title": "Austro-British Council", "id": "amp_organization_35", "title_plc": "Vienna", "id_plc": "amp_place_id_1", "country_code": "AT"}}, {"type": "Feature", "geometry": {"type": "Point", "coordinates": [2.3488, 48.85341]}, "properties": {"title": "University of Paris", "id": "amp_organization_36", "title_plc": "Paris", "id_plc": "amp_place_id_84", "country_code": "FR"}}, {"type": "Feature", "geometry": {"type": "Point", "coordinates": [-98.5, 39.76]}, "properties": {"title": "Tolkien fan club", "id": "amp_organization_37", "title_plc": "U.S", "id_plc": "amp_place_id_15", "country_code": "US"}}, {"type": "Feature", "geometry": {"type": "Point", "coordinates": [16.37058, 48.206]}, "properties": {"title": "Wild", "id": "amp_organization_38", "title_plc": "Neuer Markt", "id_plc": "amp_place_id_95", "country_code": "AT"}}, {"type": "Feature", "geometry": {"type": "Point", "coordinates": [16.37208, 48.20849]}, "properties": {"title": "Die Presse", "id": "amp_organization_39", "title_plc": "Vienna", "id_plc": "amp_place_id_1", "country_code": "AT"}}]}